{"type":"FeatureCollection","features":[{"type":"Feature","properties":{"name":"Mount Olive Lutheran Church"},"geometry":{"coordinates":[-93.26225984401101,44.94700114530946],"type":"Point"}},{"type":"Feature","properties":{"name":"Residential Solar"},"geometry":{"coordinates":[-93.26233999992951,44.94585810325799],"type":"Point"}},{"type":"Feature","properties":{"name":"Unity Foods"},"geometry":{"coordinates":[-93.26212838566751,44.93451509418756],"type":"Point"}},{"type":"Feature","properties":{"name":"Bichota Coffee"},"geometry":{"coordinates":[-93.26300705560725,44.93465058422589],"type":"Point"}},{"type":"Feature","properties":{"name":"CTUL"},"geometry":{"coordinates":[-93.26225527189065,44.93547840688785],"type":"Point"}},{"type":"Feature","properties":{"name":"Parking Ramp Midtown Greenway"},"geometry":{"coordinates":[-93.26196126580591,44.95088583904962],"type":"Point"}}]}